{"scraped_at":"2026-04-09T21:38:22.941Z","top_n":10,"indicators":{"median-family-income":{"top":[{"name":"Rainbow Lake","value":220310,"lat":58.502505,"lon":-119.400279},{"name":"Wood Buffalo","value":185400,"lat":57.6527825,"lon":-111.4667},{"name":"Jarvis Bay","value":177820,"lat":52.3380196,"lon":-114.076639},{"name":"Rocky View County","value":176500,"lat":51.3699347,"lon":-114.014186},{"name":"Foothills County","value":169360,"lat":50.6445197,"lon":-114.044788},{"name":"Norglenwold","value":163310,"lat":52.3199695,"lon":-114.1158167},{"name":"Grande Prairie County No. 1","value":159270,"lat":55.17108,"lon":-118.7949873},{"name":"Spring Lake","value":155160,"lat":53.5186571,"lon":-114.1293093},{"name":"Strathcona County","value":151140,"lat":53.5762678,"lon":-113.1255397},{"name":"Sturgeon County","value":149800,"lat":53.8422302,"lon":-113.5406548}],"bottom":[{"name":"Janvier 194","value":30260,"lat":55.8991194,"lon":-110.7411434},{"name":"Eden Valley 216","value":31690,"lat":52.3109228,"lon":-114.947389},{"name":"Blood 148","value":38250,"lat":49.51028,"lon":-113.0192086},{"name":"Stoney 142, 143, 144","value":38660,"lat":51.1451748,"lon":-114.0158444},{"name":"Ermineskin 138","value":39130,"lat":53.4577179,"lon":-113.505378},{"name":"Siksika 146","value":42430,"lat":53.476109,"lon":-112.8778585},{"name":"Saddle Lake 125","value":42800,"lat":53.9691447,"lon":-111.6887198},{"name":"Hay Lake 209","value":42870,"lat":56.1546371,"lon":-118.5111563},{"name":"Piikani 147","value":44900,"lat":49.5942192,"lon":-113.6264576},{"name":"Utikoomak Lake 155","value":45710,"lat":55.935125,"lon":-115.609415}]},"percent-aboriginal-population":{"top":[{"name":"Cold Lake 149B","value":100,"lat":54.46046,"lon":-110.192871},{"name":"Heart Lake 167","value":100,"lat":55.0347262,"lon":-111.4891624},{"name":"Unipouheos 121","value":100,"lat":53.8743719,"lon":-110.3960237},{"name":"Woodland Cree 228","value":100,"lat":56.4865348,"lon":-116.0722786},{"name":"Fort Vermilion 173B","value":100,"lat":58.3893521,"lon":-116.013693},{"name":"Duncan's 151A","value":100,"lat":56.0950724,"lon":-117.8522612},{"name":"Kapawe'no First Nation 150B","value":100,"lat":55.6153735,"lon":-116.2690044},{"name":"Boyer 164","value":100,"lat":58.4540531,"lon":-116.0627799},{"name":"Child Lake 164A","value":100,"lat":58.4948223,"lon":-116.5904486},{"name":"Makaoo (Part) 120","value":100,"lat":53.6719464,"lon":-110.0204659}],"bottom":[{"name":"Taber, M.D.","value":0.42,"lat":49.7932232,"lon":-112.1436569},{"name":"Two Hills","value":0.75,"lat":53.6919793,"lon":-111.5421091},{"name":"Special Area No. 3","value":0.94,"lat":51.6751804,"lon":-110.6652639},{"name":"Barnwell","value":1.02,"lat":49.7595798,"lon":-112.2622938},{"name":"Vauxhall","value":1.17,"lat":50.0691848,"lon":-112.1076913},{"name":"Vulcan","value":1.22,"lat":50.4016332,"lon":-113.2632357},{"name":"Bow Island","value":1.32,"lat":49.8696838,"lon":-111.3793512},{"name":"Forty Mile County No. 8","value":1.54,"lat":51.2096312,"lon":-115.5936318},{"name":"Magrath","value":1.65,"lat":49.4169215,"lon":-112.866984},{"name":"Vulcan County","value":1.8,"lat":50.4016332,"lon":-113.2632357}]}}}